
---------------------- 13.12.2019  16:41:31 ----------------------
--------------------- No satellite connected ---------------------


---------------------- 18.01.2020  15:30:55 ----------------------
--------------------- No satellite connected ---------------------


---------------------- 15.02.2020  16:40:41 ----------------------
--------------------- No satellite connected ---------------------


---------------------- 15.02.2020  16:46:17 ----------------------
--------------------- No satellite connected ---------------------


---------------------- 15.02.2020  16:47:24 ----------------------
--------------------- No satellite connected ---------------------


---------------------- 15.02.2020  16:48:32 ----------------------
--------------------- No satellite connected ---------------------


---------------------- 15.02.2020  16:51:43 ----------------------
--------------------- No satellite connected ---------------------


---------------------- 15.02.2020  16:52:32 ----------------------
--------------------- No satellite connected ---------------------


---------------------- 15.02.2020  16:52:57 ----------------------
--------------------- No satellite connected ---------------------


---------------------- 15.02.2020  16:53:56 ----------------------
--------------------- No satellite connected ---------------------


---------------------- 15.02.2020  16:59:33 ----------------------
--------------------- No satellite connected ---------------------


---------------- Connected: 15.02.2020   16:59:33 ----------------

$GPRMC,160334.00,A,4747.17919,N,01054.87197,E,2.002,,150220,,,A*70
$GPRMC,160335.00,A,4747.17911,N,01054.87216,E,0.255,,150220,,,A*71
$GPRMC,160336.00,A,4747.17917,N,01054.87219,E,0.280,,150220,,,A*73
$GPRMC,160337.00,A,4747.17914,N,01054.87213,E,0.383,,150220,,,A*79
$GPRMC,160338.00,A,4747.17911,N,01054.87227,E,0.158,,150220,,,A*70
$GPRMC,160339.00,A,4747.17912,N,01054.87243,E,0.031,,150220,,,A*7E
$GPRMC,160340.00,A,4747.17921,N,01054.87245,E,0.117,,150220,,,A*73
$GPRMC,160341.00,A,4747.17944,N,01054.87215,E,0.143,,150220,,,A*75
$GPRMC,160342.00,A,4747.17946,N,01054.87212,E,0.150,,150220,,,A*71
$GPRMC,160343.00,A,4747.17945,N,01054.87204,E,0.031,,150220,,,A*72
$GPRMC,160344.00,A,4747.17938,N,01054.87196,E,0.069,,150220,,,A*7A
$GPRMC,160345.00,A,4747.17936,N,01054.87189,E,0.098,,150220,,,A*75
$GPRMC,160346.00,A,4747.17933,N,01054.87186,E,0.030,,150220,,,A*7E
$GPRMC,160347.00,A,4747.17927,N,01054.87185,E,0.041,,150220,,,A*7F
$GPRMC,160348.00,A,4747.17928,N,01054.87186,E,0.062,,150220,,,A*7D
$GPRMC,160349.00,A,4747.17930,N,01054.87182,E,0.046,,150220,,,A*77
$GPRMC,160350.00,A,4747.17930,N,01054.87177,E,0.039,,150220,,,A*7D
$GPRMC,160351.00,A,4747.17933,N,01054.87172,E,0.078,,150220,,,A*7F
$GPRMC,160352.00,A,4747.17932,N,01054.87170,E,0.074,,150220,,,A*73
$GPRMC,160353.00,A,4747.17939,N,01054.87160,E,0.018,,150220,,,A*72
$GPRMC,160354.00,A,4747.17940,N,01054.87168,E,0.013,,150220,,,A*78
$GPRMC,160355.00,A,4747.17944,N,01054.87168,E,0.059,,150220,,,A*73
$GPRMC,160356.00,A,4747.17932,N,01054.87190,E,0.121,,150220,,,A*78
$GPRMC,160357.00,A,4747.17944,N,01054.87161,E,0.020,,150220,,,A*76
$GPRMC,160358.00,A,4747.17949,N,01054.87146,E,0.217,,150220,,,A*77
$GPRMC,160359.00,A,4747.17952,N,01054.87129,E,0.197,,150220,,,A*7E
$GPRMC,160400.00,A,4747.17950,N,01054.87107,E,0.487,,150220,,,A*7F
$GPRMC,160401.00,A,4747.17956,N,01054.87091,E,0.090,,150220,,,A*74
$GPRMC,160402.00,A,4747.17967,N,01054.87080,E,0.128,,150220,,,A*77
$GPRMC,160403.00,A,4747.17976,N,01054.87059,E,0.033,,150220,,,A*79
$GPRMC,160404.00,A,4747.17978,N,01054.87098,E,0.543,,150220,,,A*7F
$GPRMC,160405.00,A,4747.17983,N,01054.87121,E,0.032,,150220,,,A*7A
$GPRMC,160406.00,A,4747.17984,N,01054.87132,E,0.038,,150220,,,A*76
$GPRMC,160407.00,A,4747.17996,N,01054.87140,E,0.048,,150220,,,A*76
$GPRMC,160408.00,A,4747.17996,N,01054.87152,E,0.243,,150220,,,A*73
$GPRMC,160409.00,A,4747.17997,N,01054.87162,E,0.038,,150220,,,A*7E
$GPRMC,160410.00,A,4747.18005,N,01054.87163,E,0.028,,150220,,,A*7B
$GPRMC,160411.00,A,4747.18005,N,01054.87174,E,0.023,,150220,,,A*77
$GPRMC,160412.00,A,4747.18001,N,01054.87189,E,0.122,,150220,,,A*72
$GPRMC,160413.00,A,4747.18002,N,01054.87200,E,0.043,,150220,,,A*74
$GPRMC,160414.00,A,4747.18001,N,01054.87207,E,0.049,,150220,,,A*7D
$GPRMC,160415.00,A,4747.17998,N,01054.87210,E,0.025,,150220,,,A*76
$GPRMC,160416.00,A,4747.17999,N,01054.87211,E,0.038,,150220,,,A*79
$GPRMC,160417.00,A,4747.17998,N,01054.87214,E,0.048,,150220,,,A*7B
$GPRMC,160418.00,A,4747.17995,N,01054.87218,E,0.090,,150220,,,A*70
$GPRMC,160419.00,A,4747.17990,N,01054.87222,E,0.072,,150220,,,A*71
$GPRMC,160420.00,A,4747.17977,N,01054.87232,E,0.168,,150220,,,A*79
$GPRMC,160421.00,A,4747.17971,N,01054.87236,E,0.012,,150220,,,A*76
$GPRMC,160422.00,A,4747.17967,N,01054.87239,E,0.042,,150220,,,A*78
$GPRMC,160423.00,A,4747.17969,N,01054.87238,E,0.006,,150220,,,A*76
$GPRMC,160424.00,A,4747.17961,N,01054.87244,E,0.033,,150220,,,A*74
$GPRMC,160425.00,A,4747.17961,N,01054.87246,E,0.035,,150220,,,A*71
$GPRMC,160426.00,A,4747.17955,N,01054.87258,E,0.049,,150220,,,A*71
$GPRMC,160427.00,A,4747.17954,N,01054.87262,E,0.029,,150220,,,A*7E
$GPRMC,160428.00,A,4747.17953,N,01054.87263,E,0.030,,150220,,,A*7F

---------------------- 15.02.2020  17:23:17 ----------------------
--------------------- No satellite connected ---------------------


---------------------- 15.02.2020  17:49:48 ----------------------
--------------------- No satellite connected ---------------------


---------------- Connected: 15.02.2020   17:49:48 ----------------

$GPRMC,165102.00,A,4747.13767,N,01055.00133,E,18.267,119.51,150220,,,A*58
$GPRMC,165103.00,A,4747.13664,N,01054.99448,E,15.859,133.27,150220,,,A*50
$GPRMC,165104.00,A,4747.14073,N,01054.98693,E,11.250,133.71,150220,,,A*51
$GPRMC,165105.00,A,4747.14388,N,01054.98072,E,8.125,,150220,,,A*7E
$GPRMC,165106.00,A,4747.14710,N,01054.97386,E,4.870,,150220,,,A*7A
$GPRMC,165107.00,A,4747.14918,N,01054.96520,E,3.336,,150220,,,A*78
$GPRMC,165108.00,A,4747.14975,N,01054.95997,E,3.097,,150220,,,A*77

---------------------- 15.02.2020  17:57:45 ----------------------
--------------------- No satellite connected ---------------------


---------------------- 15.02.2020  19:55:18 ----------------------
--------------------- No satellite connected ---------------------


---------------------- 16.02.2020  17:12:41 ----------------------
--------------------- No satellite connected ---------------------

